[  {"city": "Bordeaux", "lat": 44.847807, "lng": -0.579472},  {"city": "Pau", "lat": 43.293295, "lng": -0.363570},  {"city": "Nantes", "lat": 47.215585, "lng": -1.554908},  {"city": "Paris", "lat": 48.854885, "lng": 2.338646},  {"city": "Lille", "lat": 50.608719, "lng": 3.063295},  {"city": "Marseille", "lat": 43.293551, "lng": 5.377397},  {"city": "Nice", "lat": 43.701680, "lng": 7.260711},  {"city": "Lyon", "lat": 45.759132, "lng": 4.834604},  {"city": "Montpellier", "lat": 43.586120, "lng": 3.896094},  {"city": "Toulouse", "lat": 43.533513, "lng": 1.411209},  {"city": "Brest", "lat": 48.389353, "lng": -4.488616},  {"city": "Limoges", "lat": 45.838771, "lng": 1.262108},  {"city": "Clermont-Ferrand", "lat": 45.780535, "lng": 3.093242},  {"city": "Tours", "lat": 47.404355, "lng": 0.688930},  {"city": "Strasbourg", "lat": 48.540395, "lng": 7.727753}]